yearBuilt,url,longitude,homeStatus,real estate provider,paymentPeriod,isListed,relaxed,postal_code,title,address,facts and features,currency,commute,price,latitude,city,homeType,state,bedrooms,bathrooms,area
-1.0,https://www.zillow.com/homedetails/Pond-View-Rd-Winhall-VT-05340/2081307255_zpid/,-72.88754,FOR_RENT,,,,False,5340.0,Apartment for rent,"Pond View Rd, Winhall, VT 05340","4 bds, 4.0 ba ,2600 sqft",USD,,"$4,000/mo",43.13764,Winhall,APARTMENT,VT,4.0,4.0,2600.0
1970.0,https://www.zillow.com/homedetails/17-Stratton-West-Rd-Winhall-VT-05340/2081745879_zpid/,-72.89681,FOR_RENT,,,,False,5340.0,Condo for rent,"17 Stratton West Rd, Winhall, VT 05340","3 bds, 2.0 ba ,1100 sqft",USD,,"$8,500/mo",43.135276,Winhall,CONDO,VT,3.0,2.0,1100.0
1988.0,https://www.zillow.com/homedetails/F6-Cobble-Ridge-Rd-Winhall-VT-05340/2082917904_zpid/,-72.863105,FOR_RENT,,,,False,5340.0,Condo for rent,"F6 Cobble Ridge Rd, Winhall, VT 05340","3 bds, 3.0 ba ,2420 sqft",USD,,"$27,000/mo",43.181144,Winhall,CONDO,VT,3.0,3.0,2420.0
1980.0,https://www.zillow.com/homedetails/12-Sap-Bucket-Rd-Winhall-VT-05340/2093945784_zpid/,-72.9151,FOR_RENT,,,,False,5340.0,House for rent,"12 Sap Bucket Rd, Winhall, VT 05340","4 bds, 3.0 ba ,1950 sqft",USD,,"$23,000/mo",43.1598,Winhall,SINGLE_FAMILY,VT,4.0,3.0,1950.0
,https://www.zillow.com/b/84-romaine-ave-jersey-city-nj-974GpM/,-74.068917,,,,,False,,For Rent,"84 Romaine Ave, Jersey City, NJ"," bds,  ba , sqft",,,,40.732659,,,,,,
